"SpRich","Longitude","Latitude","Site","AnnualTemp","AnnualPrecip"
6,33.87825,28.6385,"Wadi Salafe",165,20
6,31.26852222,29.85073611,"El Badrshein",220,16
7,33.954576,28.535323,"Mt. Sinai",113,81
15,34.42680556,28.07939444,"Nabq",234,5
6,31.12562778,30.0465,"Nahya",210,18
2,34.34463889,28.54305556,"Coastal plain of Talet El-Nakhla",159,27
1,30.35633333,31.14507222,"Beheira Nakhla",203,131
7,34.83205278,29.59599722,"Ras El-Naqab",193,30
1,34.29999444,28.59758333,"Wadi Nasab",178,15
3,30.52191389,25.25471667,"Nasser village",243,0
1,30.98584444,29.34839722,"El Nassariya",213,7
15,32.553225,25.29323611,"Wadi Nassim",249,0
2,31.52088889,30.02945833,"Wadi el Nasouri",206,29
43,30.25561389,30.40133889,"Wadi el Natroun",210,49
1,31.26088333,30.22510833,"Nawa",211,24
1,32.22121389,30.56556111,"Nefisha",219,31
2,28.44031667,31.02918889,"El-Negeela, 52 km west Matruh",192,124
2,30.06729722,30.66225556,"Nubareia",203,78
1,31.24251944,30.00675,"Old Cairo walls",214,17
18,29.602472,30.922419,"Bahig",192,115
9,32.94198611,24.479175,"Kom Ombo",255,0
20,30.92621667,29.52941944,"Kom Oshim",214,11
1,31.13291944,30.12131944,"Ausim",209,20
2,30.81517222,29.1655,"Kalamshah",210,6
5,31.20523333,30.17797222,"Qalyub",210,22
1,31.34945278,30.51539167,"Mina el Qamh",205,31
3,32.31061667,30.87149722,"El Qantara",216,50
9,30.63843333,29.46605556,"Lake Qarun",212,10
1,30.40846111,29.39816111,"Qasr Qarun",208,11
3,28.44031667,31.02918889,"El Qasr",192,124
8,28.84656944,28.35718889,"Baharaiya Oasis, Bir Qasr No. 1",212,1
2,31.28716389,29.64811667,"Atf",221,13
3,31.82397222,29.92483889,"Gebel Katamiya",204,27
4,26.75350278,29.4475,"Qattara Depression cliffs",211,17
4,32.713325,26.17236667,"Qena",241,0
8,31.88054444,29.31406389,"Wadi Qiseib",186,26
7,31.13507778,30.54936111,"Quesna (Quweisna)",206,32
3,30.05493056,31.31661111,"Abu Qir",205,183
6,34.2886,26.10491111,"Quseir",247,2
2,33.94320556,28.55215,"Wadi el Raba",140,38
2,33.94320556,28.55215,"El Raba",140,38
2,34.21531667,31.30491111,"Rafa",197,224
10,33.95454444,28.56953333,"Wadi Raha",141,35
3,33.97913333,28.41135278,"Wadi Rahaba, Quo Monastery area",135,44
3,36.42057778,22.402975,"Abu Ramad",262,25
1,34.56416111,28.66867778,"Gabal El-Rasasa",215,11
8,34.53689444,28.75903056,"Wadi El-Rasassa",193,16
3,30.90920833,29.501725,"Qasr Rashwan",215,11
182,31.07669444,30.05385,"Abu Rawash",210,19
5,30.38086389,29.15066667,"Wadi Rayan",210,8
1,33.41618611,29.00821944,"Gebel Umm Rijlein",183,17
2,29.24184167,25.55893333,"Dakhla Oasis, Balat",233,0
7,32.34105,30.65401389,"El Ballah",217,39
1,33.91075833,26.73383056,"Safaga",226,3
1,31.28299444,29.57575278,"El Saff Plateau",220,11
3,30.68622222,29.59599722,"Qasr el Sagha",212,13
15,33.97501389,28.55570556,"St Catherine Monastery area",136,42
11,33.944225,28.55772778,"Saint Catherine",140,38
3,32.54910278,28.84748333,"St. Paul Monastery area",200,11
2,31.99516944,30.79287222,"El Salhiya",211,49
1,30.71290833,28.30507778,"Samalut, Qulugan",213,1
76,31.22232222,29.85184167,"Sakkara",218,16
9,34.40215833,28.10784722,"Wadi Sayalet El-Dalal",230,6
8,32.42823611,29.89884167,"Wadi Abu Seyala",218,22
1,32.95596389,24.21580556,"Wadi Abu Sefeira",263,1
1,32.818159,29.635493,"Wadi Sidr",216,18
8,30.96515833,29.35466667,"Seila",213,7
1,31.16991111,30.45761944,"Benha",208,25
8,33.63581111,28.65797778,"Gabal Serbal",124,64
1,35.60053889,23.139,"Mersa Shaab, 35 km south Shalatein",261,14
2,30.70238889,29.46211389,"Shakshuk",213,10
1,36.47807778,22.01236389,"Gebel Shellal",225,41
2,32.53761111,30.12076389,"El Shallufa",224,21
7,31.14655278,30.07947222,"El Baragil",209,19
2,31.29460556,30.09849167,"Sharabiya",216,21
2,31.86621667,31.40942222,"Shata",203,109
1,35.5901,22.80782778,"Wadi Chaab",258,14
1,31.24251944,30.00675,"Bab el Sharia",214,17
2,30.92853056,31.10767222,"Kafr el Sheikh",201,70
1,34.299214,27.861948,"Sharm El-Sheikh",233,4
1,33.99247778,28.63035,"Wadi el Sheikh",152,27
1,33.95553056,28.53748889,"Fresh Sheikh el Arab",113,81
2,31.52604167,31.19669167,"Sherbin",202,70
1,31.20523333,30.17797222,"Kafr el Shobak",210,22
6,33.92312222,28.3564,"Gabal Umm Shommar",108,87
1,31.09836389,30.284275,"Shubra Shihab",208,24
1,28.76560833,30.96231389,"Sidi Abd el Rahman",194,117
8,31.624,22.342,"Abu Simbel",262,0
1,31.459344,30.885126,"Simbillawein",203,50
4,33.83466944,29.58553611,"Sinai",179,34
1,33.51763611,29.88988611,"Sinai Desert",182,40
6,31.18103056,29.89693889,"Abu Sir",214,17
1,29.53176944,30.94279722,"Abu Sir",192,114
6,25.54474167,29.20605,"Siwa",213,9
10,25.51666667,29.2,"Siwa oasis",213,7
1,31.69406667,26.54868333,"Sohag",227,0
1,31.25402778,29.62167778,"Aiyut Barnasht",220,12
2,31.1287,29.08244722,"Beni Suef",216,7
1,32.29413056,30.40450833,"Abu Sultan",223,24
1,31.24251944,30.00675,"Sultan Mohammad Mosque",214,17
5,31.17383611,29.99742778,"Talbia",212,17
5,30.95935278,29.48183333,"Tamiya",215,9
2,31.02567222,30.77945833,"Tanta",199,52
3,30.871175,29.4988,"Minshat Tantawi",215,10
1,32.28715556,30.57475556,"Lake Timsah E """"Hyena Quarries"""" """,219,32
2,31.20130833,30.350175,"Tukh, El Ahmar",209,25
2,31.27858056,29.93733056,"Toura cliffs",219,17
2,28.212425,27.37631944,"Farafara Oasis, Ain el Wadi",218,1
2,34.80957222,23.37578889,"Gebel Abraq",242,12
3,31.15828333,27.19986667,"El Walidiya",227,1
1,32.76119722,29.51673889,"Wadi Wardan near Ras el Sudr (Sidr)",221,15
10,30.90539444,30.31632222,"Wardan",208,27
1,31.21308333,30.099475,"Warraq El Arab",210,19
1,34.62083056,29.01696944,"Wadi Watir",222,15
1,36.280802,22.265205,"Wadi Yoider near Gebel Nesla",251,28
2,31.16716111,29.91144444,"Beni Yusef",214,16
1,31.36271944,30.284925,"Abu Zabal",211,25
3,32.66545556,29.10998611,"Ras Zafarana",222,9
4,32.55381389,29.10785278,"Bir Zafarana",219,10
3,31.50840278,30.59222222,"Zagazig",202,35
9,30.25561389,30.40133889,"Wadi el Natroun, Zaghig",210,49
2,33.92216944,30.72558333,"Zaranik area",194,85
1,33.92216944,30.72558333,"Behind Visitor center of Zaranik Protectorate",194,85
2,33.44403056,31.13561667,"Zaranik",201,107
2,33.10486111,29.04499444,"Abu Zenima",220,9
1,32.03440833,28.94183889,"Wadi Araba",211,11
1,32.53205278,29.14554722,"Wadi Araba",219,11
4,36.05939444,22.51067222,"Wadi El-Daeeb",260,21
1,31.19591111,30.13676111,"Basus",210,21
4,32.95205278,29.27008889,"Wadi Gharandal, 3 km east of Suez Gulf coast",215,12
1,31.50840278,30.59222222,"Tel Basta",202,35
13,34.79756389,23.41046111,"Bir Abraq",245,12
4,31.72315556,31.40125833,"Kafr el Battikh",201,107
7,34.371,30.665,"El Quseima",193,103
1,33.6454,29.12869167,"El-Tih Plateau",157,34
6,28.86505,28.37021667,"Bawiti",214,1
1,34.17889722,30.76678611,"Gebel Dhalfa, 48 km SE El Arish & 20 km W Palestine border",194,105
2,32.94158889,24.47941389,"El Biyara",254,0
1,32.34461667,29.68888611,"Wadi Odieb",226,14
2,32.31582222,30.31746389,"Fayid",225,22
4,30.24293056,30.42828611,"El Beida",211,50
1,30.51566944,25.33336944,"Ginah",240,0
3,31.22073936,30.05632782,"El-Gezira",211,18
1,35.28786667,22.98119167,"Bir Inglizi (Beida)",248,15
1,34.43333333,30.65,"Ein Gudairat, 90 km southeast El Arish",185,121
7,31.11520278,30.08169167,"Kafr Hakim",210,19
2,36.370351,22.264908,"Bir kansisrob, 1.6 km. N",253,26
1,30.04966667,30.98266111,"Kom el Hanash",203,128
2,31.11133611,29.99478611,"Mena house area",210,17
2,31.482925,22.11435278,"Adindan",260,0
1,31.16664124,29.93393517,"Abu Mussalam",214,16
8,29.672028,30.845376,"Abu Mena",194,108
2,36.370351,22.27929,"Bir Kansisrob, 3.2 km. N",253,26
2,32.748368,26.641355,"Wadi Qena plateau",228,0
1,31.28518611,30.94039444,"Aga",202,54
1,31.03333333,30.15,"Manshiyet Radwan",209,22
1,32.64993333,22.98335,"Seiyala",267,0
1,30.24967575,30.66676712,"El Tahreer",206,71
16,30.625304,30.404882,"Bir Victoria",209,39
2,28.53284722,27.58148889,"Western Desert",213,1
6,28.882924,28.314473,"El Aguz",212,1
3,30,25.65,"Ain Amur NW of Kharga Oasis",213,0
1,27.95,27.03333333,"Ain Besai",216,2
1,27.33333333,27.31666667,"Near Ain Dalla on Guss Abu Said Plateau NW of Farafara Oasis",216,2
2,25.61666667,29.21666667,"Ain el Baqar",213,9
3,28.795675,28.35082778,"Ain el Beilda",212,1
1,29.024485,28.343949,"Ain el Qht",209,2
1,27.96666667,26.86666667,"Ain El Tinnin",217,2
2,36.370351,22.286596,"Bir Kansisrob 4 km. N",257,25
3,36.370351,22.293217,"Bir Kansisrob 4.8 km. N",257,25
1,28.939366,28.242838,"Ain Gellaw",213,1
4,28.9,28.41666667,"Ain Marun",213,1
1,25.78333333,29.16666667,"Ain Qureishti",212,10
6,32.33333333,29.58333333,"Ain Sukhna",202,23
1,34.88333333,29.5,"Ain el Taba",234,28
1,30.41666667,25.76666667,"Ain Umm Dabadib",232,0
3,36.370351,22.295042,"Bir Kansisrob, 5 km north",257,25
1,36.370351,22.307602,"Bir Kansisrob 6.4 km. N",257,25
1,29.83333333,30.76666667,"Alam Shaltut 72km.S of Bahig",198,100
9,28.95,30.81666667,"El Alamein",194,103
1,30.91666667,29.35,"Idwa",211,7
1,29.28333333,30.68333333,"Ilwat Hawa",191,91
1,31.03333333,30.13333333,"Ezbet Afifi Pasha",209,21
1,31.01667,29.41667,"Ezbet Abu Zeid",215,8
2,30.88111,29.51639,"Ezbet el Asfar",215,10
1,28.73333333,28.03333333,"Uyun Tab-Limun",213,1
2,26.88333333,31.31666667,"Abar el Dafa",188,147
1,33.33333333,28.48333333,"Abu Durda Mines between Tor and Ras Jehan",223,6
3,30.679217,29.240414,"Bu Gandir",208,8
1,31.88333333,26.33333333,"Abu Girgeh",231,1
2,27.83333333,31.13333333,"Abu Haggag",191,125
4,33.41666667,26.8,"Abu Kharif mine area",194,9
4,27.63333333,26.5,"Abu Minqar",221,0
3,25.75,29.18333333,"Siwa Oasis, Abu Shuruf",212,9
1,32.01666667,26.16666667,"Abu Shusha",235,1
2,32.88333333,24.21666667,"Wadi Abu Subeira",267,1
5,29.300041,30.709967,"El Afritat 17km.SW of El Hammam",190,96
1,25.33333333,29.25,"Aghurmi",215,7
3,33.1,29.66666667,"Ain Sudr, WC ca. 56 km EbyS Suez & 62 km W of Nakhl",173,39
1,36.370351,22.308972,"Bir Kansisrob, 6.5 km N",257,25
1,29.737335,22.412359,"Bir Kurayim, 1 km. E",253,1
3,26.4,28.93333333,"El-Arag",214,7
1,31.73333333,31.3,"Ashmun el Ghunamiya",202,85
9,31.187593,27.181661,"Asyut",226,2
2,31.25,29.4,"Atfih",218,9
4,34.06666667,30.86666667,"Awlad ali in Wadi el Arish",196,102
4,31.25,29.61666667,"El Aiyat",220,12
9,28.86666667,28.35,"Bahariya Oasis",212,1
3,30.65,28.53333333,"El Bahnasa",211,3
1,29.742624,22.412359,"Bir Kurayim, 1.5 km. E",253,1
5,26.53333333,28.66666667,"Bahrein",213,5
1,31.13894444,30.01765,"Bakkari (doubtful, acc to Qumsiyeh)",211,16
8,30.58333333,27.25,"Ben Adi",216,1
3,31.11666667,30.03333333,"Beni Magdul",210,18
3,30.41666667,30.33333333,"Ezbet Beni Salami",213,41
1,31.15,30.23333333,"El Barada",209,21
1,29.776006,22.412359,"Bir Kurayim, 5 km. E",254,1
3,30.6,24.66666667,"Baris",250,0
1,33.41666667,23.58333333,"Barqet Tokham",256,4
2,31.11666667,30.2,"Mohammed Ali Barrage Park",209,22
1,31.18333333,30.08333333,"Bashtil",210,17
1,27.838472,27.072767,"Farafara Oasis, Batras",216,2
1,31.68333333,30.9,"Beni Hassan",205,51
7,31.56210278,30.42194444,"Belbeis",211,25
1,34.83333333,29.63333333,"Bik'at Hayareach southeast of Ras el Naqb",192,32
1,29.91666667,22.88333333,"Bir Abu Hussein",253,0
1,32.45,26.9,"Bir Abu Laseifa",204,5
1,32.36666667,29.53333333,"Bir Abu Seyala",214,17
6,33.61666667,27.36666667,"Bir Abu Shaar",220,1
3,33.23333333,26.66666667,"Bir Abu Zawil",213,2
1,36.3,22.21666667,"Bir Akwamtra area",245,28
2,28.779252,25.687436,"Bir el Nokta",232,0
1,27.66666667,27.31666667,"Bir el Obeiyid NW of Farafara Oasis",214,1
1,25.16666667,31.58333333,"Bir el Qattara",191,111
4,29.753294,22.347004,"Bir el Shab",254,1
2,34.78333333,23.35,"Bir Gumbiet",234,15
1,31.70294444,30.53948611,"El Abassa, Abu Hammad",210,33
3,33.78333333,22.71666667,"Bir Haimur",254,6
2,34.18333333,25.81666667,"Bir Hindusi",230,2
2,30.33333333,30.38333333,"Bir Hooker",212,47
2,29.91666667,22.68333333,"Bir Qiseiba",254,0
2,33.86666667,31.01666667,"Bir Lehfan",196,101
1,33.91557,22.568327,"Bir Murra 3.2km. N",254,6
3,33.45,27.56666667,"Bir Mellaha",225,1
2,28.86666667,30.21666667,"Bir Mikheimin",199,52
2,28.608,27.162,"Bir Murr",217,1
4,33.9,22.53333333,"Bir Murra",254,6
18,31.29460556,30.09849167,"Abassia",216,21
5,28.876453,30.227371,"Bir Nahid",199,53
1,30.86666667,24.01666667,"Bir Nakheila, one day's journey N",251,0
1,28.984778,25.521731,"Bir No. 2",235,0
1,28.53333333,27.1,"Bir Karawein",218,1
1,25.16666667,31.58333333,"Bir Qattar",191,111
3,32.48333333,29.4,"Bir Qiseib",206,17
2,30.55203629,25.0498085,"Qokshira",246,0
1,33.93333333,26.11666667,"Bir Seyala",228,2
1,24.88333333,31.31666667,"Bir Shafarzin",191,78
3,35.6,23.13333333,"Bir Shalatein",261,14
1,24.986741,30.866354,"Bir Shaqqa",195,51
2,32.11666667,26.8,"Bir Sheitun",210,3
2,24.86666667,31.4,"Bir Sidi Omar",191,85
1,34.490823,29.149284,"Bir el Suweir (Suweira)",206,17
1,28.88333333,22.91666667,"Bir Terfawi",247,0
2,33.22678333,23.69945278,"Bir Umm Hibal in Wadi Dihmit",257,3
4,33.36666667,22.55,"Wadi Umm Karayiet-Wadi Allaqi junction",263,2
7,25.08333333,31.55,"Bir Bosslanga (Bir Wair)",190,107
2,30.824898,30.503009,"El Birigat",208,36
1,30.66666667,29.46666667,"Birket Qarun",212,11
4,31.08333333,30.63333333,"Birket el Sabh",204,40
1,31.21666667,31.16666667,"Biyala",202,75
2,30.4,31.33333333,"Busili",205,159
1,31.18333333,30.03333333,"Bulaq",211,18
2,30.53333333,25.2,"Bulaq",245,0
5,31.18333333,30.03333333,"Bulaq el Dakrur",211,18
9,33.80760278,31.05605,"Rabaha, Bir El-abd",194,106
2,32.95,24.66666667,"Kom Ombo, El Kagug cave",254,0
1,29.037125,25.546135,"Dakhla Oasis, Dakhla",234,0
4,30.46666667,31.03333333,"Damanhour",204,102
1,31.85,30.13333333,"El Dar el Bayda",210,25
2,25.239975,24.39129722,"Wadi el Malik",213,1
3,31.13333333,30.2,"Delta Barrage",209,22
1,30.85,30.6,"Dinshawi",207,39
1,30.65,30.71666667,"Kom Hamada, Dissht el Ashraf",208,50
1,33.88333333,27.06666667,"Disshet el Daba",229,2
4,30.48333333,30.3,"Wadi el Natroun, Abu Makkar Monastery (Deir Makaryus)",211,37
2,32.35,28.93333333,"Wadi Araba, St. Anthony Monastery area",200,12
1,30.7,24.56666667,"Khargha Oasis, Dush",250,0
1,27.95666667,30.83138889,"Abu El-Dahab",189,101
4,33.96666667,28.75,"Elwate El-Agramiya",153,27
1,33.58333333,27.83333333,"Ezzeit",228,3
7,30.83599167,29.30266667,"Unknown locality",209,7
2,31.71666667,31.33333333,"Fariskur",201,92
3,33.6,26.01666667,"Fawakhir Mine area",225,2
2,29.25,30.23333333,"El Fureinat",197,56
1,30.91667,29.56667,"Tahreer Forest",214,11
2,27.38333333,29.78333333,"French Camp No. 2",206,30
5,31.6,22.26666667,"Gebel Adda",262,0
18,25.05881111,22.04375278,"Gebel Uweinat, Karkur Murr",215,6
1,29.21666667,30.55,"Abd el Mawla",192,81
4,33.26666667,27.21666667,"Gebel Abu Dokhan",165,23
2,33.21666667,27.28333333,"Gebel Abu Harba",162,23
2,34.26666667,25.71666667,"Gebel Abu Tiyur",218,8
1,33.5,26.33333333,"Gebel Aradia",208,6
1,33.71666667,29.26666667,"Gebel Baba",171,28
3,31.16666667,27.11666667,"Tombs in Gebel Drunka",224,3
5,31.3,30.05,"Gebel el Ahmar",214,20
3,31.03333333,30.01666667,"Gebel al Ghigiga",204,25
2,33.18333333,30.01666667,"Gebel el Rabbah",181,47
1,34.31306,28.51444,"Gebel Ferani",147,36
1,32.9,28.11666667,"Gebel Gharib",160,25
2,34.037329,30.657121,"Gabal El-Hallal",178,118
1,32.96666667,29.2,"Gebal Hammami",206,12
1,32.93333333,29.88333333,"Gebel Hor",182,41
1,33.97038,28.540325,"Gebel Horeb",121,67
2,33.963965,28.497093,"Gebel Catherine",96,114
3,33.6,22.88333333,"Gebel Magal Gabril area",248,5
5,33.36666667,30.73333333,"Gebel Maghara",192,82
1,36.26666667,22.25,"Gebel Nesla",249,27
5,33.36666667,27.08333333,"Gebel Qattar",160,25
2,33.48333333,26.98333333,"Gebel Shayeb",145,38
1,31.31711667,30.12734167,"Ain Shams",215,22
1,32.28333333,30.28333333,"Gebel Shubrawit",220,24
2,33.83333333,28.6,"Gebel Tarbush",126,56
1,34.03333333,28.56666667,"Gebel Umm Alawi",134,46
1,34.25,29.16666667,"Gebel Umm Afruth",167,31
1,33.25,27.03333333,"Gebel Umm Disi",172,18
1,33.6,26.96666667,"Gebel Umm Gidri",186,10
2,33.51666667,30.36666667,"Gabal Yallag",161,103
1,34.7,24.75,"Gebel Zabarra",212,19
46,31.25380278,30.05041389,"Cairo",213,18
1,30.51666667,25.33333333,"Ganah",241,0
1,30.577419,25.08764,"Bir Qokshira 4.8 km. NE",245,0
2,35.037448,22.681294,"Bir Sarara",236,18
2,30.7,29.13333333,"Gharah",210,7
4,26.859535,29.841937,"El Ghazalat near Bir Abd el Nabi",208,30
1,28.92253333,30.82174722,"Alamein",194,104
1,31.01666667,30.21666667,"El Ghunamiya",209,23
2,26,23.45,"Gilf el kebir",200,9
1,25.18333333,31.5,"Halfaya",189,102
2,33.86666667,30.91666667,"El Hamda",196,93
1,30.86666667,31.16666667,"El Hamra",201,84
1,31.05714989,29.08938026,"Hanna",214,5
1,31.16666667,29.96666667,"El Harraniya",213,16
1,25.15212,31.316688,"Bir Shafarzin 25.6 km. E",189,88
2,27.85,26.81666667,"Farafara Oasis, Hatiyet el Sheikh Marzuk",217,0
4,29.7,28.43333333,"Hatiyet el Sunt",207,3
3,28.6,30.33333333,"Hatiyet el Labaq",199,60
1,31.3,29.78333,"El Tabin",221,14
15,33.65396111,22.39841389,"Wadi Allaqi",262,3
2,30.68333333,29.35,"Ibshway",208,9
1,30.51666667,31.3,"Idfina",198,152
2,32.86666667,24.96666667,"Edfu",251,0
2,30.3,31.3,"Idku",205,161
1,34.03333333,29.2,"El-Igma Plateau",153,41
8,31.21666667,30.08333333,"Imbaba",210,18
2,32.88333333,24.06666667,"Philae",268,1
2,31.2,30.11666667,"Geziret",210,20
1,33.98333333,27.5,"Shadwan Island",231,2
2,32.48333333,25.48333333,"Gebelein, between Esna and Arment",246,0
1,24.98684,30.909626,"Bir Shaqqa 4.8km. N",194,54
2,31.23333333,29.5,"Kafr Ammar",219,11
2,30.11666667,31.16666667,"Kafr el Dawar",203,161
1,31.33333333,30.36666667,"Kafr el Shurafa",209,26
1,30.390185,30.625234,"Bir Victoria 1.6 km. E",207,60
4,31.18333333,30.01666667,"Kafr Taharmes",211,17
2,31.13333333,30,"Kafret Nassar",211,16
1,31.15,29.96666667,"Kafret el Gabel",213,16
1,32.86666667,23.55,"Kalabsha, Beit el Wali Temple",268,0
1,33.31666667,25,"El Kanayis",247,0
2,30.333012,30.625234,"Bir Victoria 8 km. S",207,63
1,25.486718,31.460807,"Buq Buq 8 km. SW",195,104
1,25.474206,31.449064,"Buq Buq 11.2 km SW",196,102
2,28.045594,27.048402,"El Khanafis",215,2
2,34.33333333,31,"Khubra Abu Guzoar, 48 km EbyS of El Arish",195,145
1,25.459576,31.434819,"Buq Buq 9.6 km. SW",196,100
2,32.86666667,23.21666667,"Khor Abusku S of Wadi Nogdeb",267,0
1,32.88333333,23.55,"Khor Rhama el Bahari",268,0
2,30.89093889,27.61681667,"Tel el Amarna",211,3
1,32.71666667,25.81666667,"Kaiman el Matana",245,0
1,32.55,30.03333333,"el Kubri",225,20
1,30.96666667,29.3,"Kom Ashmun",211,7
1,31.26666667,30.28333333,"El Kom el Ahmar",210,24
2,31.18333333,29.98333333,"El Kunaiyisa",213,17
2,31.70231111,30.11180833,"Cairo-Suez rd km 35",211,26
1,31.21666667,29.3,"El Saff, El Kuraimat",217,7
11,29.83024167,31.02343333,"El Amiriya",202,143
5,32.33333333,22.6,"Korosko",264,0
1,30.98333333,29.21666667,"El-Lahun",212,7
1,32.64855576,25.68667412,"Habou City Temple",246,0
1,32.15,22.73333333,"Madiq",264,0
21,28.91666667,30.25,"El Maghra",200,53
1,31.16666667,29.36666667,"Maidum",216,8
1,30.68333333,31.21666667,"El Mandara",200,114
2,30.01666667,31.25,"El Manshiya",205,179
5,25.31666667,29.23333333,"El Maragi",216,7
38,29.533402,30.911925,"Burg el Arab",191,109
2,34.9,25.06666667,"Mersa el Alem",252,5
1,28.48333,31.06667,"Marsaba",194,127
2,28.75,25.66666667,"Dakhla Oasis, Gharb El Mawhoub",229,0
1,31.38333333,30.13333333,"Mazaret el Gebel el Asfar",217,22
6,31.13333333,29.96666667,"Mena Village",211,17
3,30.93333333,30.46666667,"Minuf",207,32
1,30.87778,29.46222,"Minshat Beni Osman",215,9
2,30.61667,29.15,"Minshat el Amir",209,8
5,31.13333333,30.01666667,"Minshat el Bakkari",211,16
2,31.35,30.93333333,"Aga Minshat el Ikhwa",203,52
1,31.23083,29.42111,"El Saff, Minyet el Sultan",218,10
4,28.53333333,30.4,"Minqar Abu Dweiss",185,75
3,30.45,29.11666667,"El Mishigeiga",211,8
1,31.05,30.61666667,"Mit Faris",204,37
2,33.43325278,28.4049,"Gabal El-Araba",198,11
3,31.25,29.85,"El Aiyat, Mit Riheina",219,16
2,31.16666667,30.05,"El Mitimdiya",210,17
1,28.91666667,30.25,"Moghra oasis",200,53
3,32.88333333,24.48333333,"Muneiha",256,0
1,33.45906111,28.40515556,"Wadi Araba",214,7
1,30.841049,30.150812,"Cairo Alexandria desert road km. 31",206,26
13,28.980473,25.484939,"Dakhla Oasis, Mut",234,0
2,30.85,30.55,"Nadir",207,37
1,31.7,22.36666667,"Nag Misaw",262,0
1,32.85,24.91667,"Naikhala",252,0
3,33.75,29.91666667,"Nakhl",189,40
5,29.53333333,30.45,"Nakhlet el Barraq",193,71
1,33.75,29.91666667,"Nekhl",189,40
2,31,31,"Unknown locality",199,62
1,31.198811,30.349983,"Cairo- Alexandria road, 26 km N of Cairo",209,25
1,33.25778,29.05417,"Nohel",191,16
5,26.73333333,28.7,"Nuweimesa",212,6
1,34.65,28.96666667,"Nuweibah",238,12
2,33.84568611,31.04015833,"Wadi el Arish",195,101
1,31.494475,30.086928,"Cairo, 12.8 km. E",212,25
3,31.23333333,29.56666667,"El Lisht",219,11
28,33.79357222,31.13643056,"El Arish",195,116
1,31.2,30.21666667,"Qalama",209,22
1,31.46666667,30.61666667,"El Qanayat",203,35
6,26.51666667,29.61666667,"Qara Oasis",209,22
2,29.719214,30.809901,"El Qarasat",195,105
1,28.53333333,27.1,"Karawein",218,1
2,29.53333333,30.26666667,"Qaret el Mashruka",197,57
1,28.880305,25.701089,"Farafara Oasis, El Qasr",231,0
3,30.63333333,29.33333333,"Qasr El-Gibaly",208,10
5,29.65,30.53333333,"Qasr el Qatagi",192,78
11,30.96666667,30.21666667,"El Qatta",209,23
1,29.712364,30.135638,"El Quweirat el Sud",199,46
5,29.28333333,30.35,"Qur el Hilab 45 km. ENE of El Maghra",195,63
1,32.53333333,26.2,"Tel el Qurna",240,0
2,34.36666667,30.66666667,"El Kossaima (El Quseima)",194,102
2,33.26666667,25.91666667,"Qusur el Banat",238,0
1,31.65,22.23333333,"Qustul",261,0
2,29.66666667,30.73333333,"Raqabet el Halif",193,95
2,28.86666667,30.35,"Raqabet el Rala",197,62
1,32.568125,29.38168333,"Ras Abu el Darag",223,11
1,33.8,30.98333333,"El Ras el Ahmar",190,110
2,33.1,28.35,"Ras Gharib",221,5
1,28.93163872,25.58938408,"Rashida",234,0
1,25.56666667,29.18333333,"Redunkalil Tutuatee",213,7
1,31.012933,29.780394,"Cairo, 26 km SW",209,16
3,33.73333333,30.9,"Risan Eineiza, 20 km S of El Arish",189,102
1,30.648788,30.048883,"Cairo, 48 to 64 km. W",205,28
4,30.41825,31.401575,"Rosetta",207,180
1,32.63275,31.02560833,"Rumani",215,78
13,25.14727222,31.54480833,"Salum",198,92
1,29.08333333,30.46666667,"Samaket Gaballa",190,76
1,30.78333333,27.5,"Ras el Ish",215,2
2,30.04677,30.70198,"Cairo-Alexandria dersert road km. 143",202,83
2,32.88333333,26.73333333,"Wadi Saqi",224,0
1,31.08333333,30.31666667,"Saqyet Abu Shara",208,24
1,32.66666667,22.98333333,"Seyala West",267,0
4,31.126109,29.993102,"Cairo-Alexandria desert road km. 10",211,16
2,31.21666667,29.88333333,"Serapeum",217,16
3,30.373079,30.393452,"Cairo-Alexandria desert road km. 102",209,49
1,32.88333333,24.05,"Shellal",269,1
6,31.81666667,31.4,"Shatt Gheit el Nasara",202,107
1,29.037012,25.521373,"El Sheikh el Waly",235,0
1,30.320157,30.446778,"Cairo-Alexandria desert road km. 110, 0.5 km. E",209,53
2,32.46279167,29.89567222,"mountains near Suez",227,18
11,25.926455,31.615092,"Sidi Barrani",193,150
3,30.86666667,29.41666667,"Sinnuris",211,9
7,26.9,28.7,"Sitra",212,6
1,34.71666667,29.25,"Suweira",227,19
3,33.95,28.51666667,"Saint Catherine Monastery",113,80
1,31.109545,30.003201,"Cairo-Alexandria desert road km. 12",211,17
1,31.14444,29.14167,"Surarieh, s of Beni Suef",215,7
3,26.63333333,29.75,"Tal el Fawakhir",207,27
6,31.18333333,30.13333333,"Tanash",210,20
1,32.7,26.13333333,"El Taramsa",241,0
1,30.83333333,30.43333333,"El Tarrana",208,34
3,31.78333333,30.55,"Tel el Kebir",211,34
1,31.09583,31.4625,"Tel Khamis",206,145
2,32.25,22.71666667,"El Dirr, Amada",265,0
1,31.78333333,22.41666667,"Armina Temple",262,0
2,32.25,22.73333333,"El Dirr",265,0
1,32.56666667,22.75,"El Siboua Temple",266,0
7,32.65,25.68333333,"Thebes",246,0
1,30.206637,30.682302,"cairo-Alexandria desert road km. 125, 15 km. N",205,72
2,33.35,28.98333333,"Umm Bigma",182,19
1,33.75,22.66666667,"Umm Shilman plains",253,6
1,33.68333333,28.68333333,"Wadi Aleyat",166,19
3,33.6,26.05,"Wadi Atalla mouth",222,2
1,34.10472,27.8375,"Wadi Aad",228,5
1,31.75,26.91666667,"Wadi Abu Kaleja(Abu Khalifa), E of Sohag",213,4
4,33.6,26.7,"Wadi Abu Sheeh",206,6
2,33.83507919,28.48983002,"Wadi Abu Zeitouna",179,14
4,33.96666667,26.15,"Wadi Abu Ziran",231,2
1,30.016763,30.731184,"Cairo-Alexandria desert road km. 153",202,87
4,33.65,27.45,"Wadi Bali",231,1
1,32.36666667,29.53333333,"Wadi Bir el Abd",214,17
1,33.25111,29.46722,"Wadi Dalma",170,34
7,32.33333333,29.43333333,"Wadi Dom",177,36
6,36.36666667,22.18333333,"Wadi Darawena",204,54
2,32.76666667,26.65,"Wadi  Atrash",227,0
1,32.62172,28.887004,"Wadi el Deir",216,9
2,30.33333333,30.21666667,"Wadi el Farigh",208,38
5,33.33333333,26.83333333,"Wadi Fatira near Abu Kharif mine",198,7
3,33.08333333,27.16666667,"Wadi el Gosa",199,6
1,33.55,25.96666667,"Wadi el Hammamat, Fawakhir mine area",227,2
1,25.43333333,23.83333333,"Wadi Hamra",203,5
1,33.05,26.35,"Wadi Markh, 40 to 45 km. NW of Qena",231,0
3,36.41485,22.310175,"Wadi Adeib",259,26
1,34.003357,28.496334,"Wadi El-Raba",135,45
1,33.64583,28.95389,"Wadi er Rimm",176,20
10,33.83333333,28.73333333,"Wadi el Sheikh",170,19
1,32.65,26.2,"Wadi el Sheikh Isa mouth",241,0
6,33.16666667,22.91666667,"Wadi El Targama",266,1
1,34.46306,30.2925,"Wadi Ergein",193,76
1,34.00722,29.45194,"Wadi Ethmiemat",177,31
1,31.66666667,27.13333333,"Wadi Fertili",213,4
3,31.3159523,29.78420639,"Wadi Garawi",222,15
2,33.54611,28.57194,"Wadi Geba",213,8
5,34.07972,31.19694,"Wadi Gazzah",197,167
3,29.03333333,28.48333333,"Wadi Ghorabi",202,5
1,35.65556,23.07028,"Wadi Graygar",261,14
2,33.28333333,22.6,"Wadi Haimur mine area",266,1
1,29.945876,30.795869,"Cairo-Alexandria desert road km. 163",201,100
2,29.94035,30.801132,"Cairo-Alexandria desert rd km 164",201,101
5,33.68762222,28.5074,"Wadi Hebran",198,11
6,35.78333333,22.7,"Wadi Ibib",260,16
6,34.382297,28.169517,"Wadi Kid",228,6
2,31.99516944,30.79287222,"Tel Abu Ekaim near El Salhiya",211,49
1,32.62391944,23.92346389,"Wadi Kurkur",267,0
4,35.41666667,24.21666667,"Wadi Lahama",256,11
8,34.98333333,23.3,"Wadi Naam",252,10
7,34.29999444,28.59758333,"Wadi Nasb",178,15
1,34.78333333,24.61666667,"Wadi El-Gimal, Nugrus",240,10
1,31.75,22.25,"Wadi Or",262,0
5,33.28333333,27.08333333,"Wadi Qattar",193,8
1,34,28.41666667,"Wadi el Rahaba",138,39
36,31.66666667,29.33333333,"Wadi Rishrash",194,22
3,31.05,28.98333333,"Wadi Sannour",214,6
2,32.56666667,22.75,"Wadi Sibaa",266,0
3,33.58333333,26.45,"Wadi Semna",208,6
1,36.46666667,22.2,"Wadi Serimatai, 16 km. N of Halaib",252,29
1,33.3,28.93333333,"Wadi Shellal",199,13
13,36.34316944,22.20426667,"Gabal Elba",209,51
1,33.48333333,26.95,"Wadi Shawak",189,9
6,34.81666667,25.05,"Wadi Sukari",246,6
1,34.86666667,29.53333333,"Wadi Taba",222,27
5,33.92241,28.579934,"Wadi Talaah, St Katherine",144,33
1,31.811314,28.259462,"Wadi Tarfa",200,8
1,32.65,27.66667,"Wadi Umm Balad",203,5
1,34.41667,25.38333,"Wadi Um el Seniyet",232,4
2,33.38333333,26.33333333,"Wadi Umm Had",211,4
3,33.95,26.58333333,"Wadi Umm Huweitat",231,2
2,32.55,27.9,"Wadi Umm Sidri",185,11
2,32.75,26.26666667,"Wadi Umm Seleimat",239,0
2,33.172567,27.015534,"Ain Yassar wadi um yassar",209,3
1,29.934166,30.80771,"Cairo-Alexandria desert road km. 165",201,101
3,32.46666667,29.45,"Wadi Yesein",211,16
1,31.2,29.33333333,"Wasta, Maidum",217,8
2,31.65,22.23333333,"Qustul west",261,0
2,31.075265,30.022538,"Cairo-Alexandria desert road km. 17",208,20
1,29.8597,30.915857,"Cairo-Alexandria desert road km. 179",200,121
2,26.25,31.5,"Zawayet el Mithniyan",193,145
3,27.05,31.4,"Zawyet Umm El-Rakham",196,150
6,25.78333333,29.16666667,"El Zeitun",212,10
2,31.03274167,30.16568611,"Birqash",209,22
1,31.82341576,30.31090546,"between Cairo and Ismailia",215,26
1,29.775629,31.039924,"Cairo-Alexandria desert rd km 195",201,144
2,31.2544,29.59685278,"El Magedla",220,11
1,31.016949,30.066269,"Cairo-Alexandria desert road km. 26",207,22
6,31.24251944,30.00675,"Cairo Citadel",214,17
2,34,29,"Coastal plain",155,33
13,34.58249,28.66187,"Abu Gallum",234,10
6,34.42304,28.89694,"`Ain Hodra oasis",194,16
12,33.90241,28.65242,"Ecolodge Al Karm",161,21
8,31.29795833,30.02097778,"Mukattam",211,23
16,35.65,22.65,"Gebel Hamra Dom",250,20
2,25.15,31.56666667,"Salum area",193,100
1,24.86666667,31.4,"Sidi Omar",191,85
1,33.91061,28.65752,"Mohammed∆s Garden, Sheikh Awad",159,21
1,33.70401,28.44481,"Wadi Me'ar",203,10
3,34.32906342,28.79076385,"Wadi Saal",187,16
2,34.03333333,29.2,"Gebel Egma",153,41
7,31.16167,30.25528,"Sindbis",209,22
1,34.42830658,29.11749077,"Wadi Boualeya",199,17
3,33.87958,28.54545,"Abu Hamat garden, Farsh Romana",126,57
3,34.11667,30.83333,"Abu Aweigila",197,102
1,30.80444,30.66417,"Amroos",206,43
2,33.603356,28.623589,"Wadi Sigilliyeh",187,13
1,32.434694,29.490525,"Abu el Darag 1km. N",225,12
1,30.885814,30.264307,"Abu Ghalib W",208,27
1,27.814729,31.133707,"Abu Haggag 1.6 km. E",191,127
1,27.792917,31.136737,"Abu Haggag, 3.2 km E",190,128
2,29.65423,30.845907,"Abu Mena, 1.6 km. E",193,108
1,29.563345,30.84621,"Abu Mena 10 km. E",189,108
1,29.553348,30.845604,"Abu Mena 11.2 km. E",190,108
1,29.639082,30.845301,"Abu Mena 3.2 km. E",193,106
1,29.620905,30.845301,"Abu Mena 4.8 km. E",191,109
2,29.602122,30.844998,"Abu Mena 6.4 km. E",191,108
1,29.619391,30.845301,"Abu Mena E of.",191,109
1,29.636053,30.812885,"Abu Mena, 5 km SE",193,105
1,28.124697,25.915168,"Abu Minqar, 80 km. S",224,0
8,34.55781944,28.61192778,"Wadi El-Omaiyed",236,9
1,36.368448,22.421307,"Abu Ramad 4 km N",261,25
1,31.077584,30.041818,"Abu Rawash, 1 km south",209,19
1,31.077309,30.07862,"Abu Rawash 3 km. N",210,20
1,31.044078,30.05385,"Abu Rawash 3.2 km. W",209,20
1,31.040096,30.05385,"Abu Rawash, 3.3 km W",208,20
1,31.027325,30.052117,"Abu Rawash 4.8 km. W",208,21
1,31.025952,30.052117,"Abu Rawash, 5 km W",208,21
1,31.025952,30.052117,"Abu Rawash W.",208,21
1,33.092209,29.118614,"Abu Zenima 8 km. N",212,12
4,28.930099,29.1828,"Acacia grove 120 km.S of El Maghra",199,15
1,28.008478,29.277421,"El Maghara 140 km SW",204,17
1,28.326808,28.719282,"El Maghara 180 km SSW",203,8
1,29.131123,30.253635,"El Maghara 20 km. E",197,56
1,28.977702,30.255686,"El Maghara E",200,55
2,29.23550556,29.44085833,"El Maghara, 95 km. SSE, between Misaada and El Rammak Dunes",195,23
1,28.405735,29.358232,"Acacia grove 48 km. SW of south end of Abu sennan Dune",199,20
2,25.280308,29.249444,"Aghurmi 5 km. E",213,7
2,32.349871,29.578914,"Ain Sukhna 3.5 km. S",226,13
1,29.74057,31.080388,"Alexandria 4.8 km. W",201,147
1,29.3242,30.832447,"Alexandria 66 km. W",192,106
1,27.4,31,"Alexandria westwards",188,117
2,29.753294,31.088265,"Alexandria, west",202,148
1,29.334619,30.869537,"Alexandria-Salum rd km 54",193,109
3,32.749872,23.105036,"Allaqi Village 11.2 km. S",267,0
1,32.749872,23.098368,"Allaqi Village 20 km. S",267,0
1,32.749872,23.107852,"Allaqi Village 9-10 km. S",267,0
1,29.764806,31.083721,"Amiriya-Alexandria road, about 15 km. W at Alexandria",202,148
1,29.784497,31.030099,"Amiriya-Alexandria road, about 20 km. W of Alexandria",200,144
1,31.850681,22.359736,"Armina Temple 10 km. NW",263,0
3,32.914959,24.079002,"Aswan 1.6 km. SE",268,1
2,32.908301,24.232128,"Aswan 16 km. N",263,1
1,32.908301,24.263197,"Aswan 19.2 km. N",265,1
3,32.8619,24.03389,"Aswan Dam Hospital, west bank",270,1
3,32.884207,24.065686,"Aswan, west bank tombs",268,1
1,33.1968,23.721706,"Aswan, 50 km south east",260,2
1,31.157633,27.151307,"Asyut 4.8 km. SW",221,3
1,28.91352222,28.32598611,"Bahariya Oasis N.",212,1
1,29.602521,30.833069,"Bahig 10 km. S",192,105
1,29.675078,31.017848,"Bahig 12-13 km. NE",198,133
1,29.517619,30.817417,"Bahig 14 km. SW",190,103
1,29.602792,30.787519,"Bahig 15 km. S",193,101
2,29.602722,30.777434,"Bahig, 16 km S",192,101
4,29.603004,30.761633,"Bahig 18 km. S",193,97
1,29.47251,30.804792,"Bahig 18 km. SE",190,102
1,29.603326,30.751546,"Bahig 19 km. S",193,96
1,29.603275,30.744151,"Bahig 20km. S",193,95
1,29.601362,30.693396,"Bahig 25 km. S",193,90
1,29.602127,30.690704,"Bahig 25.6 km. S",193,90
1,29.603234,30.622796,"Bahig, 33 km S",193,86
21,28.44031667,31.02918889,"El-Dab'aa",192,124
1,29.603123,30.605988,"Bahig 35 km. S",193,84
1,29.602927,30.576407,"Bahig, 38.4 km S",193,82
1,29.604617,30.879796,"Bahig 4.8 km. S",191,112
2,29.602734,30.546826,"Bahig 42 km. S",192,78
1,29.603134,30.487662,"Bahig, 48 km S",192,76
1,29.987502,30.644601,"Bahig 48 km. SE",201,80
1,29.604847,30.878836,"Bahig, 5 km S",191,112
1,29.602972,30.462115,"Bahig 51 km. S",192,72
1,29.60374,30.460095,"Bahig, 51.2 km S",192,72
1,29.560752,30.882832,"Bahig 6 km. SW",190,108
1,29.604707,30.859106,"Bahig, 7 km. S",191,109
3,29.60466,30.852462,"Bahig 8km. S",191,109
1,29.539498,30.862574,"Bahig 9 km. SW",190,106
1,29.397229,30.704816,"Bahig SSW 16-50 km",191,93
1,29.604847,30.878836,"Bahig S.",191,112
1,31.23333,29.58333,"Bamha",219,11
1,30.626303,24.52887,"Baris 17 km. S",250,0
1,27.913188,27.072993,"Batras 6.4 km. E",217,2
2,30.664392,30.581867,"between Kom Hamada & Bir Victoria",210,42
1,26.30211,30.293935,"Between Mariut and Siwa",192,55
1,33.185488,26.670088,"Bir Abu Zawil, 6.4 km. W",216,1
1,29.699809,22.316275,"Bir el Shab 6.5 km. ESE",254,1
2,31.002363,30.074623,"Cairo-Alexandria desert raod km. 30",207,22
1,30.937786,30.093187,"Cairo-Alexandria desert road km. 35",204,26
3,31.191057,30.012167,"Cairo-Alexandria desert road Km.4",211,17
1,31.187344,30.011106,"Cairo-Alexandria desert raod km. 4.6",211,17
1,31.185222,30.008984,"Cairo-Alexandria desert road km. 5",211,17
1,30.75612,30.212131,"Cairo-Alexandria desert road km. 55",208,28
2,30.438935,30.355342,"Cairo-Alexandria desert rd km 90",210,44
1,31.177796,30.006863,"Cairo-Alexandria road, 6 km W",212,17
2,31.220229,30.186141,"Cairo-Alexandria desert road km. 10.5",210,22
1,31.210682,30.250321,"Cairo-Alexandria road, 17 km N of Cairo",210,23
1,31.196891,30.362768,"Cairo (on Cairo-Suez rd?), 30 km E",209,25
1,30.095464,31.135632,"Cairo-Alexandria road, 179 km N of Cairo",204,159
1,30.936609,29.914229,"Cairo-Bahariya Oasis road km. 20",205,21
2,29.475417,29.01555,"Cairo-Bahariya Oasis Track km. 208, acacia grove area 6 km. SE",200,11
1,29.409592,29.102331,"Cairo-Bahariya road km. 208, Acacia grove, 7 km E.",199,13
1,31.110842,29.973611,"Cairo-Faiyum rd km 3",210,18
1,30.997237,29.748756,"Cairo-Faiyum rd km 30",206,19
2,34.51501944,28.49145556,"Dahab",235,9
2,31.473815,30.084389,"Cairo-Suez rd km 11",212,25
3,31.54641,30.088631,"Cairo-Suez road km. 18",211,26
1,31.380559,30.079346,"Cairo-Suwz road 2 km. E of Cairo",215,24
1,31.559609,30.094288,"Cairo-Suez raod km. 20",212,25
1,31.581293,30.102773,"Cairo-Suez road km. 22",212,26
1,31.58247222,30.10229722,"Cairo-Suez raod km. 24",212,26
1,31.640217,30.117858,"Cairo-Suez road km. 28",211,26
2,31.649174,30.117858,"Cairo-Suez road km. 29",211,26
1,31.699141,30.112201,"Cairo-Suez rd km 34",211,26
1,31.759951,30.103716,"Cairo-Suez rd km 40",211,26
4,28.032549,29.817701,"Camel pass Dune area",203,33
1,31.38296318,27.08358383,"Chut el Khoueldi",227,2
1,34.49427,28.49819,"Dahab, 2 km west",233,9
1,29.001498,25.411868,"Dakhla Oasis 10 km. S",232,0
1,28.628266,25.782192,"Dakhla Oasis 60 km. E",229,0
1,28.934068,25.573818,"Dakhla Oasis, 10 km. N",234,0
2,28.994366,25.534459,"Dakhla Oasis, 4.8 km. N",235,0
1,28.99456,25.536204,"Dakhla Oasis, 5 km. N",235,0
1,32.645798,23.217942,"Dakka 2 km. N",266,0
1,31.756912,31.414255,"Damietta, W of",202,108
3,32.657962,26.064737,"Dandara 6 to 8 km. S",235,0
2,29.797772,31.130709,"Dikheila airfield, 0.8 km W",204,160
2,27.20694444,30.20027778,"Ein EI Qattara",204,47
3,30.910681,31.20557,"El Akoola",201,91
1,28.797352,30.641272,"El Alamein - Moghara rd, 27 km",191,89
1,29.81241,31.023523,"El Amiriya 1.6 km. E",202,142
1,29.830509,30.977581,"El Amiriya 5 km. S",201,134
4,29.90697861,31.18523979,"El Atareen",206,181
1,28.658371,28.05296,"El Bawiti 40 km. S.",211,1
1,30.244279,30.402844,"El Beida, 5 km. S",210,49
1,30.290188,30.442155,"El Beida, 4.8 km. E",209,53
1,30.813939,30.503153,"El Birigat 1 km. W",208,36
5,30.804133,30.503297,"El Birigat 2 km. W",208,37
1,30.794039,30.503297,"El Birigat 3 Km.W",208,37
1,30.867006,31.555413,"El Burg, 10 km W",205,176
1,30.912575,31.5632,"El Burg, 6 km W",205,176
1,32.78879167,23.77175556,"Wadi Dihmit",267,0
1,32.62976,25.335589,"El Dirr, E",247,0
1,31.44167,30.79278,"El Gawashna",202,45
2,30.74952316,29.24912834,"El Ghaba",209,6
4,29.90083,31.18778,"Karmouz",206,181
1,30.99639,31.06361,"Meseer",200,67
4,29.88778,31.18056,"Mina El Basal",207,179
1,31.40611,30.78944,"Safur",203,45
2,33.81667,25.28333,"Ayd near Old Kenah (Qena)",233,2
2,25.5362587,29.19090271,"Ain Dakrur",213,7
2,30.71857834,25.63380623,"Ain Eede 9 km. E",236,0
1,33.853391,27.074204,"Disht el Daba road",229,2
1,32.885575,24.987909,"Idfu temple",252,0
1,33.86647034,25.31665802,"El Gidda",232,2
1,25.983106,31.437564,"El Hammam 10Km. S",191,136
1,25.910096,31.386366,"El Hammam 17Km.SW",190,127
1,25.990074,31.34668,"El Hammam 20 Km. S",189,126
2,25.979774,31.473918,"El Hammam 6 km. S",192,138
1,25.857004,31.444002,"El Hammam, 15 km. SSW",191,131
1,30.572465,26.013887,"El Kharaga 60 km. N",222,0
1,30.73636,25.460401,"El Kharga 14 km.E",240,0
1,30.571859,25.420714,"El Kharga 3 km. S",242,0
1,30.572162,25.412232,"El Kharga 4 km. S",242,0
3,31.17033056,29.794775,"Dahshur Pyramids",215,16
1,30.573374,25.376484,"El Kharga 8 km. S",244,0
2,32.625164,23.929983,"El Koror area",267,0
4,29.218818,30.614833,"El Labban",191,86
1,28.650563,30.267882,"El Maghra 27 km. W",199,58
1,28.93291,30.33756,"El Maghra 8 km. N",197,63
1,28.963811,29.16394,"El Maghra, 120 km. S",198,15
1,30.032914,31.287605,"El Muntaza, 0.8 km E",205,182
2,28.945937,28.428685,"El Qasa, No. 2 NE of Bawiti",213,1
14,31.23540556,29.75457778,"Dahshour",220,14
1,30.55035,30.624755,"El Tahreer 3.2 km. W",209,50
2,32.418024,31.073118,"El Arish 137 km. W",216,68
1,33.789772,30.984051,"El-Arish, 17 km south",190,110
1,33.551352,31.072209,"El-Arish, 25 km west",199,100
4,28.442438,30.998895,"South El-Dabaa",192,121
2,30.819064,30.374217,"El Khatatba 1.6 km. W",208,32
3,28.822334,30.248796,"El Maghra 10 km. SW",197,58
1,31.006589,30.134888,"El-Mansuriya, 4 km W",207,23
1,33.556805,31.064332,"El-Medan",198,100
2,28.819002,28.356886,"El-Qasr, 2 km W",212,1
1,33.36201,31.04252,"Elrooda",203,92
2,30.9525,31.37028,"Tolombat No. 10",203,127
1,30.841786,29.364188,"Faiyum 4.8 km. N",211,8
1,30.864507,29.35207,"Faiyum road km. 5",211,7
2,30.826335,29.505665,"Faiyum, 20 km. N of cultivation",214,10
2,28.216741,27.254459,"Farafara Oasis, 4.8 km. N",218,2
1,34.550213,28.762017,"Fawakhir Mine 16 km. E in Wadi Abu Ziran",196,16
1,33.618304,26.01419,"Fawakhir mine 4.8 km E",224,2
2,33.684043,26.006313,"Feiran Oasis, 1.6 km E",220,3
1,34.43304062,28.41764259,"Gabal El-Maghara, 10 km northeast",191,14
1,33.419267,30.799253,"Gabal El-Maghara, 20 km north",183,104
2,33.384731,30.891955,"Gebel Lehfan",197,88
1,33.84925278,31.01122778,"Gabal Lehfan, 20 km south El Arish",193,107
2,33.791287,30.95618,"Gabal Lehfan, 25 km south of El Arish",191,105
5,33.792802,30.90892,"Gabal Meshbeh",194,95
3,34.67593056,22.72532222,"Gard el Chaibe",206,31
1,31.18333,31.54778,"Gebel el Katamiya observation area",206,159
1,31.82397222,29.92483889,"Gebel Iweibid",204,27
1,32.2,30.15,"Gebel Sinn",212,26
2,30.50763056,28.85889444,"Bir Dakaar",209,6
1,32.961437,29.658729,"Gebel Sukhna, N of",196,27
1,32.319113,29.605896,"Gebel Tenassib",226,13
2,32.561621,28.514722,"Gezeret El Flowsiat",164,26
4,33.411548,31.092012,"Ghard el Tafasikh",202,101
1,29.805041,29.770386,"Giarabub and neighboring regions, Cyrenaica",198,31
1,31.248645,30.018556,"Giza 16 km. NW",214,18
1,31.082932,30.113076,"Giza 32 km. NW",209,20
1,31.050214,30.032794,"Giza Pyramids 166 km. W",208,20
3,29.39218,29.993411,"Giza pyramid 8 km. NW",194,44
1,31.038702,29.973114,"Giza pyramids a few miles W",207,21
1,31.077782,29.977355,"Giza Pyramids, just S",208,19
1,31.117165,29.966449,"Giza, 2 km from",210,18
1,31.190176,30.026432,"Hadiat el Tolh",211,17
1,28.673587,30.382396,"Halaib 20 km. N",198,65
1,36.490553,22.323677,"Halaib 20.8 km. NW",262,27
1,36.46147,22.282779,"Halaib 3.2 km. W",258,27
1,36.617489,22.226734,"Wadi Hamradum",262,29
5,29.07279722,25.56681111,"Dakhla oasis",231,0
4,32.66196667,25.71774167,"Heliopolis 8 km. E",246,0
1,31.429505,30.095202,"Heliopolis, 12.8 km E",213,25
1,31.478885,30.093687,"Heliopolis, 4.8 km E",213,25
1,31.395877,30.094293,"Helwan 2 km. SE",215,25
1,32.751729,31.016575,"Hurghada 12 km. S",214,77
2,33.825823,27.099046,"Hurghada 14 km. S",231,0
1,33.830064,27.082081,"Hurghada 16 km. S",230,0
1,33.83582,27.063601,"Hurghada 20 km. S",228,3
2,33.840062,27.028156,"Idku 2 km. W",227,3
1,30.28012,31.290937,"Imbaba 1 km. W",205,161
2,31.191085,30.078842,"Imbaba 1.6 km W",209,17
2,31.18654,30.080357,"inland from Tor",209,17
2,33.647084,28.27297,"Ismailia, 80 km E",223,7
1,31.33333,30.13333,"Katrahel Calb",215,23
1,34.300153,30.927657,"Kharga Oasis 10 km. S",196,130
1,30.607607,25.224404,"Kom O Shim 1 km. W",245,0
1,30.912675,29.518086,"Kom O Shim 1.6 km. N",214,11
2,30.922673,29.535051,"Kom O Shim 1.6 km. W",214,11
1,30.907222,29.516874,"Kom O Shim 10 km. N",213,11
1,30.923884,29.612908,"Kom O Shim 3.2 km. N",213,12
1,30.923884,29.550198,"Kom O Shim 3.6 km. NE",214,11
1,30.943576,29.549289,"Kom O Shim Forest",214,11
1,30.96963,29.553531,"Kom O Shim, 1.6 km. NE",214,11
1,30.935396,29.535354,"Kom O Shim, near Lake Qarun",214,11
1,30.851783,29.502332,"Kom Ombo Temple 0.8 km. E",215,10
1,32.936974,24.454613,"Lake Nasser, 2 km west",258,0
2,32.825489,23.68149,"Lake Qarun 1.6 km. N",268,0
1,30.622451,29.529598,"Lake Qarun 10 km. SW",209,13
1,30.565194,29.335408,"Lake Qarun 3 km. NW",208,11
1,30.608213,29.537474,"Lake Qarun NW end",208,14
1,30.397967,29.455073,"Lake Qarun SE end",210,12
1,30.8124,29.484458,"Lake Qarun SW end",214,10
2,30.478248,29.408116,"West end of Lake Qarum, 3 km. N",209,11
2,33.70722222,27.07590833,"Wadi Um Delfa",222,1
1,30.436138,29.482641,"Lake Qarun, 3 km northeast end",204,14
1,30.625784,29.537777,"Lake Qarun, southeast",209,14
2,30.839059,29.549289,"Libyan desert, no exact loc",213,11
1,24.28478,31.815643,"Luxor 4.8 km. N",193,97
1,32.680983,25.755775,"Luxor Temple",246,0
1,32.662503,25.717906,"Maadi 32 km. E",246,0
1,31.649142,29.978264,"Maadi, 3.3 km E",204,29
1,31.351647,29.958572,"Manzal El-Hayan",215,23
2,33.032705,24.456128,"Matruh, 15 km. W",259,0
1,27.078869,31.373036,"Matruh, 2 km south",196,147
2,27.23822,31.326988,"Matruh, 3 km south",196,145
1,27.23519,31.321535,"Matruh, 5 km east",196,145
2,27.273967,31.319111,"Mersa Matruh - Qara rd, 18 km S",195,145
5,27.112799,31.23671,"Mer Rouge Ile- gebel Zuhair",189,141
1,34.25866,28.40301,"Mersa Alam-Quseir road",185,15
2,34.751632,24.947207,"Mersa Matruh 1.6 km NE",238,9
1,27.263061,31.357889,"Mersa Matruh 1.6 km. E",196,150
1,27.263667,31.35183,"Mersa Matruh 1.6 km. W",196,150
1,27.218831,31.353647,"Mersa Matruh 19 km. E",196,150
1,27.386058,31.242768,"Mersa Matruh 2.4 km. NE",196,134
1,27.262455,31.360312,"Mersa Matruh 4.8 km. E",197,150
1,27.26912,31.321535,"Mersa Matruh 4.8 km. W",195,145
2,27.186112,31.353647,"Mersa Matruh 8 km. NE",196,148
1,27.318198,31.293058,"Mersa Matruh, 2.5 km NE",195,143
1,27.266091,31.360918,"Mersa Matruh, 32 km E",197,150
1,27.496331,31.182179,"Mersa Matruh, 33 km W",195,127
1,26.92376,31.434837,"Mersa Matruh, 60 km W.",196,151
1,26.657165,31.386972,"Mersa Matruh, E",190,146
1,27.280632,31.3179,"Mersa Matruh, W",195,144
1,27.134611,31.361524,"Mersa-Sidi Barrani Rd, 35 km W",196,150
4,32.347967,22.640334,"mountains, no exact locality",264,0
1,28.996832,25.451009,"Mut 10 km. N",234,0
1,30.864204,29.425081,"Mut 3.2 km. S",213,8
2,34.412027,31.179452,"north of El Faiyum",196,190
1,31.187146,27.17963,"Pyramids 1 km. S",226,2
1,31.116256,29.965237,"Pyramids 3.6 km. W",210,18
1,31.057787,29.976446,"Qara road E of Mersa Matruh",208,21
1,26.365123,30.381184,"Qara, 10 km E",191,59
1,26.654742,29.602608,"Qaraa El Hartway",208,23
1,32.707339,25.89301,"Qena-Quseir road",244,0
1,33.623757,25.975109,"Qena-Safaga road km.5",224,2
1,32.742481,26.208985,"Ramleh 40 Km. W",240,0
7,31.82436667,31.42939444,"Damietta",202,112
1,29.642415,31.018587,"Ras Abu el Darag 1km. N",198,133
2,32.556774,29.388121,"Safaga 6.4 km. S",223,11
2,33.917313,26.672495,"Salum 50 km E.",234,2
1,31.646112,31.001016,"Salum 10 km E",204,55
2,25.637442,31.521481,"Salum 10 km. E",195,121
1,25.24361111,31.48664167,"Salum 12.8 km. SE",197,90
4,25.179688,31.447258,"Salum 16 km. E",188,99
1,25.182718,31.430899,"Salum 17 km. E",189,96
1,25.308138,31.475735,"Salum 17.6 km. SE",197,94
2,25.310562,31.475433,"Salum 18 km. E",197,94
1,25.319953,31.473009,"Salum 18 km. SE",197,95
1,25.322377,31.472403,"Salum 18.7 km E",197,95
2,25.224221,31.392425,"Salum 19 km. E",188,96
1,25.335706,31.470585,"Salum 19.2 km E",196,95
2,25.336312,31.469677,"Salum 22 km E",196,95
2,25.339948,31.469071,"Salum 24 km E",196,95
1,25.368425,31.465435,"Salum 24 km. Sw",196,97
1,25.394478,31.463012,"Salum 3.2 km. S",197,98
1,24.981863,31.391819,"Salum 4.8 km. S",190,87
1,25.164238,31.512695,"Salum 4.8 km.E",189,104
1,25.19938,31.514513,"Salum 4.8 km.SE",196,90
1,25.180597,31.503001,"Salum 48 km. E",191,99
1,25.605936,31.517845,"Salum 6.4 km. E",195,119
1,25.213921,31.505424,"Salum 6.6 Km. E",196,90
3,25.215739,31.503304,"Salum 8 km SE",196,90
1,25.793764,31.569952,"Salum 9.6 km S",193,140
1,25.1912,31.475433,"Salum, 16 km S",188,101
8,32.65818889,26.16753611,"Dandara",241,0
7,25.163632,31.395454,"Sakhara el dalan",188,93
1,31.379997,31.005238,"Shalatein, 2 km W",205,53
1,30.84845,28.488669,"Sidi Barrani 1.6 km. S",213,3
1,30.523387,30.164577,"Sidi Barrani 19.2 km E",208,32
1,25.925849,31.597823,"Sidi Barrani 19.2 km SW",194,148
2,26.118524,31.556623,"Sidi Barrani 19.2 km S",194,147
5,32.65818889,26.16753611,"Dandara Temple",241,0
1,25.776193,31.494821,"Sidi Barrani 22.8 km. E",193,132
1,25.925243,31.437867,"Sidi Barrani 28.8 km. E",191,134
1,26.156089,31.544505,"Sidi Barrani 3.2 km. S",194,148
2,26.214861,31.53784,"Sidi Barrani 31 km. E",194,147
1,25.927061,31.582676,"Sidi Barrani 32 km Sw",193,146
2,26.241521,31.533599,"Sidi Barrani 32 km E",194,147
2,25.750745,31.357283,"Sidi Barrani 32 km. W",190,117
2,26.248791,31.531175,"Sidi Barrani, 33 km west",194,147
2,25.607754,31.518451,"Sidi Barrani 4.8 km S",195,119
1,25.603512,31.516028,"Sidi Barrani 42 km. W",195,118
1,25.925849,31.56874,"Sidi Barrani 48 km. W",193,145
2,25.512628,31.479674,"Sidi Barrani 52.8 km W",195,108
1,25.452038,31.466344,"Sidi Barrani 55 km. W",196,103
1,25.41629,31.463315,"Sidi Barrani 60 km. W",196,99
2,25.382966,31.463315,"Sidi Barrani, 8 km S",196,97
1,25.333283,31.473009,"Sidi Barrani, 10 km S",196,95
1,25.920396,31.538446,"Sidi Barrani, 18 km S",193,143
1,25.921608,31.518451,"Sidi Barrani, 19 km. S",192,141
1,25.927061,31.584494,"Sidi Barrani, 3.3 km S",193,147
1,25.925243,31.439685,"Sidi Barrani, 30 km east",191,134
1,25.927061,31.584494,"Sidi Barrani, 5.28 km. W",193,147
1,26.233644,31.536022,"Sidi Barrani, 50 km W",194,147
1,25.873742,31.5954,"Sidi Barrani, 51 km. W",193,146
1,25.402355,31.46392,"Sidi Barrani, 53 km W",196,99
1,25.402355,31.46392,"Siwa 6.4 km. E.",196,99
1,31.380124,30.885593,"Siwa Oasis 10 km. N",204,50
2,26.169419,29.223923,"Siwa 48 km. N",202,17
7,25.62896,29.363279,"Siwa Oasis, 5 km. N",206,13
1,25.580488,29.706822,"Siwa rd, 130 km S of Mersa Matrouh",202,20
1,25.633807,29.318443,"Siwa-Qara raod 46 km. NE of Siwa",207,12
1,26.476002,30.463586,"Siwa-Qara track, 10 km E of Qara, betw El Naqb el Abyad and el Naqb el Ahmar",192,66
1,26.053693,29.499,"Slum 1.6 km. E",199,20
1,26.424501,29.463858,"Sollum, Sw of",203,20
1,25.173629,31.531781,"south of El Faiyum",196,89
1,24.979137,31.3385,"southwest Sinai",190,83
1,30.856024,29.2215,"St. Catherine Monastery area, 4.8 km. W",211,6
1,33.92004,28.545623,"Suez 33 km. NE & 25 km E of the canal",120,70
1,33.097839,29.082144,"Suez Canal, S of Kabuti",216,10
1,32.43148333,29.46442778,"Abu el Darag",212,16
1,32.713095,30.249705,"Suez road, 20 km E of Cairo City",210,34
1,31.573102,30.100958,"Tor, mountains N of",212,25
1,30.633054,24.716966,"Tungala",250,0
3,32.16667,22.73333,"Wadi Halfa",265,0
2,25.519337,31.423332,"Wadi Abou Rutha",196,103
4,34.01417,28.27583,"Wadi Abu Sandug",133,46
1,34.65,29.45,"Wadi Abu Sanduq 4 km. S",186,30
1,32.568125,29.38168333,"Ras abu Darag",223,11
2,32.522238,29.367218,"Wadi Abusku",211,16
2,35.481434,22.923211,"Wadi Aluchaib",258,13
1,35.321174,23.641501,"Wadi el Arab",232,21
1,31.588552,29.576252,"Wadi el Pasal",207,18
1,32.5,22.76667,"Wadi el Faraid",266,0
1,30.27211389,31.20509722,"Wadi El Ghalib",204,149
2,35.328445,23.494874,"Wadi el Katamiya mouth",238,19
5,34.63333,25.53333,"Wadi el Metras",250,3
1,31.798798,29.919492,"Wadi el Nadait entre Chalatim et Adedat",203,27
1,35.603143,23.14353,"Wadi el Natroun 15 km. W",261,14
2,30.443409,30.303024,"Wadi el Natroun 5 km. W",211,40
1,29.981716,30.499334,"Wadi el Qreiya, Qena-Safaga road km. 77",200,67
3,30.448559,30.292118,"Wadi el Rokham",210,39
1,33.0424,26.433772,"Wadi el Sheikh 4.8 km. W",226,0
1,33.995171,25.283782,"Wadi El-Natroun, 20 km W",229,3
1,33.94064,28.608939,"Wadi Gadrib",138,40
1,29.828425,30.499334,"Wadi Gell",195,74
2,34.16667,23.55,"Wadi Hamzi",249,5
6,33.88333,30.98333,"Wadi Hennis",196,100
1,34.79770556,29.39867778,"Wadi Hor",237,25
8,28.26667,27.4,"Wadi Iseili",218,1
1,32.88333,23.48333,"Wadi Medisa",268,0
1,34.35143889,25.93390833,"Wadi Midhais",247,2
2,35.917982,22.630564,"Wadi Nagib",261,17
1,33.238028,26.976428,"Wadi Nagib",205,5
3,33.22591,23.16716,"Wadi Quleib",259,2
1,33.839683,22.937526,"Wadi el Raml",249,6
1,33.2,22.78333,"Wadi Rawd Ayiad",267,1
3,28.98333,28.86667,"Wadi Seqel",206,6
2,35.288932,24.299215,"Wadi Sceitun",252,12
1,34.428387,22.135547,"Wadi Soulimania",251,10
1,29.98615,30.53964444,"Wadis of Eastern Desert",202,69
2,32.140221,29.415083,"Giza W.",172,40
2,27.409991,31.220047,"Zaranik Protectorate center, 2 km E",196,132
1,33.358764,30.454488,"Zaranik Protectorate center, 4 km E",191,61
2,33.478039,31.131587,"Sidi Barani 8 km. E",201,107
1,25.874651,31.596006,"Simbillawein           8 km. E",193,146
1,26.00401,31.582979,"Simbillawein 5 km. W",194,147
1,31.551593,30.889228,"Siwa Oasis 20km.E",204,50
1,31.407995,30.885593,"Suez, just east of",203,50
1,25.949176,29.228165,"Zaranik Protectorate Center, 3 km E",211,12
1,32.652808,29.963419,"Zaranik Protectorate Center, 3 km S",223,22
5,30.82416389,30.4591,"Kafr Dawud",208,36
1,31.600973,31.325473,"Damietta mouth of Nile",201,90
2,34.78340149,29.6084671,"Nekhel",193,27
1,33.79252243,27.26708412,"foraging close to the bus parking of the Monastery Saint Katherine in Wadi Sheikh",230,1
2,31.85903358,30.17334366,"Alam dabus",213,25
1,25.8798008,31.60358047,"El Hara, 14 km. S",193,146
1,31.43178558,31.16484261,"El Imayid",203,68
3,29.105024,28.184462,"El Malfa 110km. W of Siwa",207,1
1,29.4206562,30.66231918,"El Mensi",191,91
2,31.30009651,29.6166172,"Faras West 4 km. S",221,11
1,33.64878889,28.64570833,"Fayid 4.8 km. NE",121,67
2,33.945601,28.54685,"Fayid 4.8 km. NW",123,63
1,33.967981,28.552829,"Gabal Nsob El-Daan",130,51
1,33.910044,28.587145,"Gagheret bay",141,36
6,32.29827,30.354179,"Garet Hamed",225,22
1,32.268469,30.332621,"Hammam Ali",225,22
1,32.61284256,22.00190926,"Mahtuat el Dowa",253,1
3,27.85181618,30.74036026,"Tell el Adam",187,97
2,29.44918633,30.8842411,"Tell Neidat",192,108
5,31.94740868,30.90690804,"Wadi Abu Mousa",209,52
1,30.14987564,31.18301392,"Wadi Aremi",203,160
1,32.58319855,25.23333931,"Wadi Awaba, southern Gilf el Kebir",249,0
2,31.71760368,26.60228539,"Wadi el Haden",228,0
1,33.41685104,27.46900558,"Wadi Fahamia",223,1
1,31.883955,22.40202522,"Wadi Fatamia",263,0
3,25.39731026,23.46875191,"Gebel Genawi",222,1
1,26.20077515,29.1677494,"Wadi Gaera",207,13
4,29.68340492,30.95014191,"Wadi Gumbiet",196,124
1,31.81370926,29.96751595,"Wadi Hadaba",210,26
4,31.31643105,29.78349686,"Wadi Labaq",222,15
1,32.2997818,30.10066605,"Wadi Mitgal",215,25
1,28.69730186,30.40372849,"Wadi Nasr",188,75
1,33.65901947,22.76135254,"Wadi Qluched",259,3
1,31.51625252,30.08318901,"Wadi Satakh",211,26
1,33.33324432,27.02985764,"Wadi Yalleh",183,11
1,34.0568428,27.90112495,"Wadi Zuwar Abou Sirih",223,5
1,30.53724722,30.81741667,"Dilingat",206,67
1,27.19822311,31.19708633,"Almat Warr",189,138
2,33.92058563,26.14125061,"El Khoueldi",227,2
1,31.30157778,27.136325,"Gard Rammaki",226,4
16,31.05374444,29.47491944,"Wadi Tabib",216,9
1,33.47488889,22.99150278,"El Gau",259,2
2,30.67246111,30.84385,"Sahl El-qaa",204,63
2,29.50954722,30.90088889,"Wadi Qena mouth",191,109
1,25.76667,30.95,"Aen Hamaam",188,83
1,30.61028,30.85333,"Baltim 1Km.S",204,67
1,33.700485,30.643868,"Between Helwan and Gulf of Suez",197,69
1,32.92446944,24.40364167,"Derau (Daraw), 36 km N of Aswan",263,1
1,31.12139,30.24472,"between Le Cap and Kantara",209,23
1,31.290107,29.914455,"Cairo 10 Km.E",220,16
1,31.46646667,29.8806,"Cairo 35 km. E",208,26
1,33.98167778,24.75627222,"Cairo-Alexandria road, 30 km N of Cairo",238,4
1,31.831959,30.102023,"hills west and sw of Dahab",212,25
4,32.291179,30.913949,"Khor Dihmit",216,54
1,31.611278,30.183662,"Lake Timsah west side",214,23
1,31.797518,30.100747,"Mersa Alem 20 km. SW",212,25
1,31.203083,30.330357,"Mersa Matruh 22 km. E",209,25
1,32.968527,24.072214,"Qustul East",265,1
1,34.468007,28.495073,"Road between Idfu and Kom Ombo",222,9
7,33.124152,23.771489,"Royal Shooting Club, 5 km N Faiyum",264,1
2,32.272204,30.585401,"Wadi Adeib, 3.2 km. N of Bir Kansisrob",218,35
1,34.781648,24.928071,"Wadi Adeib 3.6 km. N of Bir Kansisrob",235,11
1,27.396504,31.237238,"Wadi Adeib 4 km. N of Bir Kansisrob",196,133
1,33.0752,24.389763,"Wadi Adeib 6.4 km. N of Bir Kansisrob",259,1
1,32.934086,24.763595,"Wadi Adeib, 4.8 km. N Bir Kansisrob",252,0
1,30.84942,29.366315,"wadis west of Nabq",211,8
4,36.390989,22.265632,"West Aswan , Nile bank",254,27
4,32.46794444,26.12259167,"Dishna",240,1
1,36.39354,22.267864,"West lake Nasser",255,27
2,36.397686,22.27201,"West Tamiya",255,27
1,36.415226,22.285404,"Abu El Matamir, 1 km W",257,26
2,36.405021,22.276793,"West Armina",256,26
1,34.40614,28.095807,"Ayun Musa E of",230,6
1,32.820238,23.843242,"Ballana East",268,0
1,30.193438,30.931169,"between El-Khatatba and Wadi El-Natroun",204,106
3,32.997867,24.449795,"Bir Abd el Nabi",259,0
1,24.921342,29.613145,"Burg el Arab 12.8 km. W",214,9
1,32.913995,24.402916,"Burg El-Arab, 8 km west",262,1
1,30.356716,31.14611,"Farascon, west of",203,131
1,30.376836,30.428659,"Gilf Kebir & Uweinat",209,49
1,26.956179,29.984746,"Giza Pyramid area 16 km. W",195,43
1,29.533402,30.911925,"Hatiyet Abd Enaby",191,109
1,29.38215,30.850806,"Idku, sand dunes close to sea",193,106
1,29.424564,30.872491,"Isna E.",192,106
1,31.653693,31.333624,"Kalabasha 4 km. S",201,92
1,25.234424,22.877048,"Karkur Murr 12 km. W",223,1
1,30.940866,29.973266,"Kurna",203,25
4,26.966384,29.93149,"Maqdaba",208,34
8,32.614546,25.301584,"Wadi Isla",248,0
1,25.016435,22.10714,"Limited to Cliffs north of Salum",233,1
2,33.500017,30.680462,"Khor Musa Pasha",187,85
1,33.355875,29.03203889,"Qaret el Mashruka 8 km. S",199,14
1,25.133175,31.63324722,"Qaret El Mashruka, W of",191,115
3,33.96961944,28.52834722,"Sand Bar of Zaranik",124,62
1,31.396,22.00001111,"various northern coastal localities",261,0
2,29.554118,30.283402,"Wadi Allaqi 11.2 km. SE of Allaqi Village",197,57
1,29.483737,30.273891,"Wadis of Gebel Uweinat",195,58
3,30.778179,28.241714,"Between Abu Ghalib and Cairo on Cairo-Alexandria desert road",209,2
1,33.723013,31.122348,"Abydos, W",196,108
1,30.91099722,29.94251389,"6th October City",205,22
1,33.68339722,28.70694444,"Wadi Akhdar",177,17
6,31.42776111,29.93268611,"Wadi Digla",210,25
1,32.58048889,25.3354,"El Deir",248,0
1,32.58048889,25.3354,"El Diwan near El Dirr",248,0
1,31.74542778,26.56263333,"Akhmim",227,0
4,36.29734167,22.21801667,"Wadi Akwamatra",246,28
16,29.88235,31.17793889,"Alexandria",207,179
3,32.553225,25.29323611,"Isna",249,0
2,36.102,22.135525,"Wadi Eteigan",245,25
1,29.88235,31.17793889,"Port of Alexandria",207,179
4,30.97195,29.53594167,"Fanus",214,11
3,31.79868889,30.72653333,"Faqus",207,48
4,28.19909444,27.20273056,"Farafara Oasis",217,2
2,32.16168889,26.05385833,"Farshout",238,2
2,31.71364444,31.33055833,"Faraskur",201,92
20,30.83599167,29.30266667,"Faiyum",209,7
38,33.573998,28.751703,"Feiran Oasis",181,15
1,33.60231111,28.7197,"Feiran Oasis",191,13
1,32.34105,30.65401389,"El Ferden",217,39
3,30.54831111,31.20481389,"Fuwa",198,127
3,27.92681944,31.058575,"Foka",194,114
2,28.93896944,28.30508333,"Ain Guffara",213,1
17,31.95680833,30.11822778,"Wadi el Gafra",212,25
2,33.9051,28.53191667,"Wadi Gibal",122,63
6,35.08123,24.661814,"Mouth of Wadi El-Gimal",254,7
9,33.95399167,28.54537778,"Wadi el Arbaein",130,51
1,33.96599444,28.53428056,"El Arbaeian Monastery 9km. W of St. Catherine Monastery",128,56
4,34.783525,24.856925,"Wadi Ghadir",227,13
20,30.93903611,30.2739,"Abu Ghalib",208,25
2,31.25871111,30.71273333,"Mit Ghamr",202,43
1,31.02567222,30.77945833,"Unknown locality",199,52
1,28.625115,30.984354,"Wadi el Ghazal S of Sidi Barrani",193,120
3,32.10517222,29.615725,"Wadi el Ghuweibba",219,14
1,35.04074167,24.34731389,"Wadi Abu Ghosun",241,11
3,31.68471944,29.84861389,"Wadi Gindali",202,28
2,31.67738611,29.90658056,"Bir Gindali",203,29
1,31.855675,30.04467778,"Wadi el Gindali",211,25
45,31.19738333,30.00135278,"Giza",212,17
45,31.11250833,29.97633333,"Giza Pyramid area",211,17
12,31.19738333,30.00135278,"Giza Zoological Gardens",212,17
1,34.41211111,30.64724444,"Wadi Gedeiret",191,108
3,31.54174167,27.29688611,"Wadi Habeeb",218,4
1,31.871779,30.986349,"San El-Hagar",206,59
1,33.05417778,24.45089167,"Armena East Pumping station",259,0
15,30.701075,30.75915833,"Kom Hamada",205,53
1,31.67615833,30.53823611,"Tel el Kebir, Abu Hammad",209,33
6,29.42118611,30.83901389,"El Hammam",192,105
3,30.97415833,30.292775,"Ashmon",208,25
1,33.76178611,28.78441111,"Gebel Hamra",155,27
2,31.15257778,31.31399444,"El Hamul",203,102
1,31.57169444,26.77599444,"Gebel el Haridi",218,2
4,29.11654663,28.33322716,"El Hara",212,1
1,31.25969167,29.89734444,"Hawamdiya",219,16
1,33.22678333,23.69945278,"Wadi Dihmit, Bir Umm Hibal area",257,3
1,28.669043,28.04485,"El Heiz",207,1
1,29.07006944,25.52682222,"Asment",234,0
5,31.33377222,30.09604167,"Heliopolis",216,21
6,31.37596389,29.86079444,"Helwan",217,20
2,34.10192778,30.97476944,"Wadi Hareidin, 20 km SE El Arish",195,123
1,33.063792,30.208076,"Bir El-Gidi",183,55
6,35.566909,23.106255,"Wadi Hodein",261,14
1,31.3652,29.88784167,"Wadi Hof",219,20
3,30.31666667,31.1,"South side of Lake Idku (Abu Hommos area)",203,126
1,30.29175556,30.909225,"Hosh Eisa",205,95
8,31.36271944,29.88483333,"Wadi Hof",219,20
2,33.83333333,27.23333333,"Hurghada",228,3
7,32.26876667,30.63911111,"Ismailia",217,36
6,36.36694444,22.24379444,"Bir Kansisrob",252,28
6,36.36694444,22.24379444,"Wadi Kansisrob",252,28
12,31.540691,27.391443,"Wadi Asyuti",217,4
2,25.137275,22.09798056,"Karkur Tahl",232,2
1,32.66196667,25.71774167,"El-Karnak",246,0
7,32.66196667,25.71774167,"El-Karnak, Big Temple",246,0
18,32.905131,24.090098,"Aswan",268,1
7,31.109075,30.03226111,"Kirdasa",210,18
3,31.35781389,30.21722222,"El Khanka",212,24
18,30.60664722,25.32145,"Kharga oasis",245,0
4,34.19038056,27.84978333,"Wadi Khoshbi",219,5
10,30.83554444,30.37589722,"El Khatatba",208,31
1,32.783985,25.768802,"Khayzam, 16 km NE Luxor",245,0
1,34.678925,29.99165278,"Kuntila",198,53
1,32.92383611,24.05141944,"East Aswan",268,1
2,29.726358,22.412441,"Bir Kurayim",253,1
4,32.322425,23.905902,"Kurkur Oasis",256,0
1,29.92143056,22.68782222,"Bir Kiseiba",254,0
2,31.16779444,30.02906389,"Saft el Laban",211,17
27,32.65404167,25.68889167,"Luxor",246,0
11,31.29428889,29.95519444,"Maadi",218,19
1,27.37515278,31.22095556,"Maatin el Garawla",195,133
1,33.40571111,30.69586111,"Bir el Maghara",184,91
11,33.382525,30.70650556,"Gabal El-Maghara",178,103
5,31.15224722,30.96294444,"Mehalla el Kubra",199,60
2,30.6393,25.62643611,"El Mahariq",239,0
2,34.167025,28.38198056,"Wadi Mandar",156,25
1,29.99716667,31.27215556,"Mandara",205,183
6,28.95108611,28.35446389,"Bahariya Oasis, Mandisha",213,1
1,30.97041667,27.31460278,"Manfalut",223,0
12,31.06295833,30.13725278,"El Mansuriya",209,21
1,31.82301944,26.39214722,"Awlad Hamza",230,1
2,31.25601111,29.81565833,"El Marazig",220,15
1,31.34881944,30.16126667,"El Marq",215,23
5,29.43368333,30.88771389,"Lake Mariut",192,108
5,29.43368333,30.88771389,"Mariut, 65 km W of Alexandria",192,108
1,30.83764444,27.48943611,"Massarah",215,2
7,30.20330278,30.92729444,"Abu el Matamir",204,105
1,31.32052778,30.12989167,"Matariya",215,22
24,27.237008,31.355768,"Mersa Matruh",196,150
6,27.237008,31.355768,"western Mediterranean coast, no exact loc",196,150
2,28.83286111,25.681325,"Ezbet Muhib",232,0
1,30.79803056,28.49837778,"Beni Mazar",212,3
2,31.22093333,29.99693889,"Saqiyet Meki",214,17
7,30.7708,28.09656944,"Minya",213,1
3,31.16375278,29.94085,"Zawyet Abu Mussalam",214,16
2,31.41698056,26.99665,"El Badari",227,2
1,32.95395278,30.02684444,"Metla area",188,42
1,32.95395278,30.02684444,"Mitla Road at 30 deg N",188,42
1,32.58258889,25.731175,"Valley of Queens, tomb",239,0
4,32.59305278,25.73941944,"Valley of the Kings",234,0
1,30.93196667,30.46546944,"Monof",207,32
1,30.93196667,30.46546944,"unknown locality",207,32
1,31.29795833,30.02097778,"Cairo, hills east",211,23
7,31.29795833,30.02097778,"Gebel Mokattam",211,23
1,33.91806389,22.58455278,"Wadi Murra",253,6
7,32.64040833,29.86579167,"Ayun Musa",226,19
